frame_number,subframe_number,time_cpu_cycles,guide_freq,vme_guide_freq,coarse_freq,runner_up_freq,fine_freq,tracked_freq,coarse_peak_mag,runner_up_peak_mag,fine_peak_mag,tracked_peak_mag,signal_power,competition_ratio,guide_vme_gap_hz,coarse_fine_gap_hz,tracked_fine_gap_hz,vme_last_rel_err,estimate_seq,inter_frame_proc_time_usec,inter_frame_proc_margin_usec,tx_write_time_usec,tx_overwrite_count,vme_iterations,track_selected,step_limited,valid
1,0,3075959775,0.0,0.0,0.0,0.0,0.0,0.0,0.0,0.0,0.0,0.0,0.0,0.0,0.0,0.0,0.0,0.0,0,5715,3082147,0,0,0,0,0,0
10,0,3165886512,0.0,0.0,0.0,0.0,0.0,0.0,0.0,0.0,0.0,0.0,0.0,0.0,0.0,0.0,0.0,0.0,0,5374,31150,2131,0,0,0,0,0
20,0,3266167755,0.0,0.0,0.0,0.0,0.0,0.0,0.0,0.0,0.0,0.0,0.0,0.0,0.0,0.0,0.0,0.0,0,6562,30148,2131,0,0,0,0,0
30,0,3366028736,0.0,0.0,0.0,0.0,0.0,0.0,0.0,0.0,0.0,0.0,0.0,0.0,0.0,0.0,0.0,0.0,0,5981,30615,2131,0,0,0,0,0
40,0,3465907007,0.0,0.0,0.0,0.0,0.0,0.0,0.0,0.0,0.0,0.0,0.0,0.0,0.0,0.0,0.0,0.0,0,5453,31235,2131,0,0,0,0,0
50,0,3565840653,0.0,0.0,0.0,0.0,0.0,0.0,0.0,0.0,0.0,0.0,0.0,0.0,0.0,0.0,0.0,0.0,0,5181,31457,2131,0,0,0,0,0
60,0,3665796385,0.0,0.0,0.0,0.0,0.0,0.0,0.0,0.0,0.0,0.0,0.0,0.0,0.0,0.0,0.0,0.0,0,4982,31667,2131,0,0,0,0,0
70,0,3765922931,0.0,0.0,0.0,0.0,0.0,0.0,0.0,0.0,0.0,0.0,0.0,0.0,0.0,0.0,0.0,0.0,0,5491,31380,2131,0,0,0,0,0
73,0,3795956172,0.0,0.0,0.0,0.0,0.0,0.0,0.0,0.0,0.0,0.0,0.0,0.0,0.0,0.0,0.0,0.0,0,5645,30931,2131,0,0,0,0,0
82,0,3885853498,0.0,0.0,0.0,0.0,0.0,0.0,0.0,0.0,0.0,0.0,0.0,0.0,0.0,0.0,0.0,0.0,0,5215,31394,2131,0,0,0,0,0
88,0,3945886843,0.0,0.0,0.0,0.0,0.0,0.0,0.0,0.0,0.0,0.0,0.0,0.0,0.0,0.0,0.0,0.0,0,5368,31277,2131,0,0,0,0,0
97,0,4035841188,0.0,0.0,0.0,0.0,0.0,0.0,0.0,0.0,0.0,0.0,0.0,0.0,0.0,0.0,0.0,0.0,0,5176,31435,2131,0,0,0,0,0
107,0,4135823655,0.0,0.0,0.0,0.0,0.0,0.0,0.0,0.0,0.0,0.0,0.0,0.0,0.0,0.0,0.0,0.0,0,5092,31622,2131,0,0,0,0,0
117,0,4235799415,0.0,0.0,0.0,0.0,0.0,0.0,0.0,0.0,0.0,0.0,0.0,0.0,0.0,0.0,0.0,0.0,0,4988,31682,2131,0,0,0,0,0
127,0,40814098,0.0,0.0,0.0,0.0,0.0,0.0,0.0,0.0,0.0,0.0,0.0,0.0,0.0,0.0,0.0,0.0,0,4912,31640,2131,0,0,0,0,0
137,0,140814457,0.0,0.0,0.0,0.0,0.0,0.0,0.0,0.0,0.0,0.0,0.0,0.0,0.0,0.0,0.0,0.0,0,4909,31700,2131,0,0,0,0,0
147,0,240824994,0.0,0.0,0.0,0.0,0.0,0.0,0.0,0.0,0.0,0.0,0.0,0.0,0.0,0.0,0.0,0.0,0,4953,31673,2131,0,0,0,0,0
157,0,340829603,0.0,0.0,0.0,0.0,0.0,0.0,0.0,0.0,0.0,0.0,0.0,0.0,0.0,0.0,0.0,0.0,0,4969,31691,2131,0,0,0,0,0
167,0,440838749,0.0,0.0,0.0,0.0,0.0,0.0,0.0,0.0,0.0,0.0,0.0,0.0,0.0,0.0,0.0,0.0,0,5004,31764,2131,0,0,0,0,0
177,0,540840424,0.0,0.0,0.0,0.0,0.0,0.0,0.0,0.0,0.0,0.0,0.0,0.0,0.0,0.0,0.0,0.0,0,5012,31623,2131,0,0,0,0,0
187,0,640832297,0.0,0.0,0.0,0.0,0.0,0.0,0.0,0.0,0.0,0.0,0.0,0.0,0.0,0.0,0.0,0.0,0,4989,31567,2131,0,0,0,0,0
197,0,740833295,0.0,0.0,0.0,0.0,0.0,0.0,0.0,0.0,0.0,0.0,0.0,0.0,0.0,0.0,0.0,0.0,0,4985,31760,2131,0,0,0,0,0
207,0,840840609,0.0,0.0,0.0,0.0,0.0,0.0,0.0,0.0,0.0,0.0,0.0,0.0,0.0,0.0,0.0,0.0,0,5010,31646,2131,0,0,0,0,0
217,0,940822411,0.0,0.0,0.0,0.0,0.0,0.0,0.0,0.0,0.0,0.0,0.0,0.0,0.0,0.0,0.0,0.0,0,4935,31701,2131,0,0,0,0,0
227,0,1040828656,0.0,0.0,0.0,0.0,0.0,0.0,0.0,0.0,0.0,0.0,0.0,0.0,0.0,0.0,0.0,0.0,0,4962,31599,2131,0,0,0,0,0
237,0,1140821024,0.0,0.0,0.0,0.0,0.0,0.0,0.0,0.0,0.0,0.0,0.0,0.0,0.0,0.0,0.0,0.0,0,4937,31709,2131,0,0,0,0,0
247,0,1240825001,0.0,0.0,0.0,0.0,0.0,0.0,0.0,0.0,0.0,0.0,0.0,0.0,0.0,0.0,0.0,0.0,0,4953,31647,2131,0,0,0,0,0
257,0,1340819758,0.0,0.0,0.0,0.0,0.0,0.0,0.0,0.0,0.0,0.0,0.0,0.0,0.0,0.0,0.0,0.0,0,4922,31785,2131,0,0,0,0,0
267,0,1440806797,0.0,0.0,0.0,0.0,0.0,0.0,0.0,0.0,0.0,0.0,0.0,0.0,0.0,0.0,0.0,0.0,0,4876,31690,2131,0,0,0,0,0
277,0,1540800787,0.0,0.0,0.0,0.0,0.0,0.0,0.0,0.0,0.0,0.0,0.0,0.0,0.0,0.0,0.0,0.0,0,4851,31726,2131,0,0,0,0,0
287,0,1640817492,0.0,0.0,0.0,0.0,0.0,0.0,0.0,0.0,0.0,0.0,0.0,0.0,0.0,0.0,0.0,0.0,0,4927,31762,2131,0,0,0,0,0
297,0,1740830544,0.0,0.0,0.0,0.0,0.0,0.0,0.0,0.0,0.0,0.0,0.0,0.0,0.0,0.0,0.0,0.0,0,4987,31690,2131,0,0,0,0,0
307,0,1840812463,0.0,0.0,0.0,0.0,0.0,0.0,0.0,0.0,0.0,0.0,0.0,0.0,0.0,0.0,0.0,0.0,0,4897,31689,2131,0,0,0,0,0
317,0,1940814271,0.0,0.0,0.0,0.0,0.0,0.0,0.0,0.0,0.0,0.0,0.0,0.0,0.0,0.0,0.0,0.0,0,4903,31762,2131,0,0,0,0,0
327,0,2040787609,0.0,0.0,0.0,0.0,0.0,0.0,0.0,0.0,0.0,0.0,0.0,0.0,0.0,0.0,0.0,0.0,0,4786,31757,2131,0,0,0,0,0
337,0,2140825031,0.0,0.0,0.0,0.0,0.0,0.0,0.0,0.0,0.0,0.0,0.0,0.0,0.0,0.0,0.0,0.0,0,4946,31624,2131,0,0,0,0,0
347,0,2240796481,0.0,0.0,0.0,0.0,0.0,0.0,0.0,0.0,0.0,0.0,0.0,0.0,0.0,0.0,0.0,0.0,0,4832,31719,2131,0,0,0,0,0
357,0,2340810026,0.0,0.0,0.0,0.0,0.0,0.0,0.0,0.0,0.0,0.0,0.0,0.0,0.0,0.0,0.0,0.0,0,4889,31718,2131,0,0,0,0,0
367,0,2440812111,0.0,0.0,0.0,0.0,0.0,0.0,0.0,0.0,0.0,0.0,0.0,0.0,0.0,0.0,0.0,0.0,0,4895,31851,2131,0,0,0,0,0
377,0,2540787657,0.0,0.0,0.0,0.0,0.0,0.0,0.0,0.0,0.0,0.0,0.0,0.0,0.0,0.0,0.0,0.0,0,4786,31863,2131,0,0,0,0,0
387,0,2640801483,0.0,0.0,0.0,0.0,0.0,0.0,0.0,0.0,0.0,0.0,0.0,0.0,0.0,0.0,0.0,0.0,0,4851,31708,2131,0,0,0,0,0
397,0,2740816381,0.0,0.0,0.0,0.0,0.0,0.0,0.0,0.0,0.0,0.0,0.0,0.0,0.0,0.0,0.0,0.0,0,4911,31725,2131,0,0,0,0,0
407,0,2840818034,0.0,0.0,0.0,0.0,0.0,0.0,0.0,0.0,0.0,0.0,0.0,0.0,0.0,0.0,0.0,0.0,0,4927,31709,2131,0,0,0,0,0
417,0,2940802386,0.0,0.0,0.0,0.0,0.0,0.0,0.0,0.0,0.0,0.0,0.0,0.0,0.0,0.0,0.0,0.0,0,4854,31715,2131,0,0,0,0,0
427,0,3040807961,0.0,0.0,0.0,0.0,0.0,0.0,0.0,0.0,0.0,0.0,0.0,0.0,0.0,0.0,0.0,0.0,0,4884,31836,2131,0,0,0,0,0
437,0,3140816412,0.0,0.0,0.0,0.0,0.0,0.0,0.0,0.0,0.0,0.0,0.0,0.0,0.0,0.0,0.0,0.0,0,4914,31747,2131,0,0,0,0,0
447,0,3240796315,0.0,0.0,0.0,0.0,0.0,0.0,0.0,0.0,0.0,0.0,0.0,0.0,0.0,0.0,0.0,0.0,0,4829,31852,2131,0,0,0,0,0
457,0,3340815454,0.0,0.0,0.0,0.0,0.0,0.0,0.0,0.0,0.0,0.0,0.0,0.0,0.0,0.0,0.0,0.0,0,4911,31690,2131,0,0,0,0,0
467,0,3440795176,0.0,0.0,0.0,0.0,0.0,0.0,0.0,0.0,0.0,0.0,0.0,0.0,0.0,0.0,0.0,0.0,0,4818,31737,2131,0,0,0,0,0
477,0,3540802397,0.0,0.0,0.0,0.0,0.0,0.0,0.0,0.0,0.0,0.0,0.0,0.0,0.0,0.0,0.0,0.0,0,4851,31851,2131,0,0,0,0,0
487,0,3645201556,1.3517587184906006,1.350000023841858,1.3517587184906006,1.3819096088409424,1.349648118019104,0.0,25.78218650817871,5.190230369567871,25.922035217285156,0.0,0.0012959919404238462,0.20131070911884308,0.0017586946487426758,0.002110600471496582,1.349648118019104,2.8266967759538186e-12,9,4922,31822,2131,0,3,0,0,1
497,0,3746533952,1.3567838668823242,1.350000262260437,1.3517587184906006,1.3819096088409424,1.3499488830566406,1.3499488830566406,21.289268493652344,4.431905746459961,21.360740661621094,21.360740661621094,0.0010680552804842591,0.20817556977272034,0.006783604621887207,0.001809835433959961,0.0,1.6180576323243656e-10,10,4871,31746,2131,0,3,1,0,1
507,0,3846565572,1.3718593120574951,1.350000023841858,1.3517587184906006,1.3819096088409424,1.3502496480941772,1.3502496480941772,8.615206718444824,1.7939684391021729,8.644783973693848,8.644783973693848,0.0004322323657106608,0.20823277533054352,0.021859288215637207,0.0015090703964233398,0.0,3.212461630042185e-09,11,4907,31640,2135,0,4,1,0,1
517,0,3946524751,1.3819096088409424,1.399999976158142,1.4020100831985474,1.3718593120574951,1.3652496337890625,1.3998737335205078,16.03603744506836,5.086533546447754,16.14998435974121,16.14998435974121,0.0008074314682744443,0.3171939253807068,0.018090367317199707,0.03676044940948486,0.03462409973144531,2.573745128131577e-08,12,4813,31726,2131,0,3,1,1,1
527,0,4046572694,1.3819096088409424,1.399999976158142,1.4020100831985474,1.3718593120574951,1.3802496194839478,1.400437593460083,15.29301929473877,4.637493133544922,15.354988098144531,15.354988098144531,0.0007677240064367652,0.3032424747943878,0.018090367317199707,0.02176046371459961,0.020187973976135254,3.037370177594312e-08,13,4976,31610,2131,0,3,1,1,1
537,0,4146548642,1.3819096088409424,1.4000000953674316,1.4020100831985474,1.3718593120574951,1.395249605178833,1.3997985124588013,16.07192611694336,5.001089096069336,16.16366195678711,16.16366195678711,0.0008081984706223011,0.31116923689842224,0.018090486526489258,0.0067604780197143555,0.004548907279968262,2.5247821611174004e-08,14,4865,31735,2131,0,3,1,1,1
547,0,4246539729,1.3819096088409424,1.4000000953674316,1.4020100831985474,1.3718593120574951,1.3997608423233032,1.3997608423233032,19.294551849365234,6.02373743057251,19.40955352783203,19.40955352783203,0.0009704733383841813,0.3121988773345947,0.018090486526489258,0.0022492408752441406,0.0,1.4760182409645495e-08,15,4823,31768,2131,0,3,1,0,1
557,0,51592578,1.3819096088409424,1.4000000953674316,1.4020100831985474,1.3718593120574951,1.4000616073608398,1.4000616073608398,18.8574275970459,5.709713935852051,18.932292938232422,18.932292938232422,0.0009465772891417146,0.3027832806110382,0.018090486526489258,0.0019484758377075195,0.0,1.4864590447416504e-08,16,4912,31765,2131,0,3,1,0,1
567,0,151577120,1.3819096088409424,1.4000002145767212,1.4020100831985474,1.3718593120574951,1.3997608423233032,1.3997608423233032,19.883031845092773,6.30457067489624,20.024953842163086,20.024953842163086,0.0010011190315708518,0.3170829713344574,0.01809060573577881,0.0022492408752441406,0.0,1.2221359924069475e-08,17,4851,31745,2131,0,3,1,0,1
577,0,251718544,1.3869346380233765,1.4000000953674316,1.4020100831985474,1.3718593120574951,1.4000616073608398,1.4000616073608398,23.77787971496582,7.2272047996521,23.878259658813477,23.878259658813477,0.0011938759125769138,0.3039465546607971,0.013065457344055176,0.0019484758377075195,0.0,1.2418051031914956e-09,18,5440,31251,2131,0,3,1,0,1
587,0,351701525,1.3819096088409424,1.4000002145767212,1.4020100831985474,1.3718593120574951,1.3997608423233032,1.3997608423233032,13.756446838378906,4.2373948097229,13.824419021606445,13.824419021606445,0.0006912924582138658,0.30802974104881287,0.01809060573577881,0.0022492408752441406,0.0,2.8396330620239496e-08,19,5373,31167,2131,0,3,1,0,1
597,0,451659318,1.3819096088409424,1.4000002145767212,1.4020100831985474,1.3718593120574951,1.4000616073608398,1.4000616073608398,13.661273002624512,4.301138877868652,13.749689102172852,13.749689102172852,0.0006875111721456051,0.31484174728393555,0.01809060573577881,0.0019484758377075195,0.0,2.9720602867655543e-08,20,5196,31485,2131,0,3,1,0,1
607,0,551665365,1.3768844604492188,1.4000000953674316,1.4020100831985474,1.3718593120574951,1.4003623723983765,1.4003623723983765,7.401713848114014,2.240083694458008,7.430970191955566,7.430970191955566,0.0003715147904586047,0.30264392495155334,0.02311563491821289,0.0016477108001708984,0.0,2.8723077249992457e-08,21,5135,31536,2131,0,4,1,0,1
617,0,651701388,1.266331672668457,1.2500001192092896,1.2512562274932861,1.2814069986343384,1.3853623867034912,1.2803623676300049,21.8770809173584,4.746791839599609,21.926483154296875,5.3449201583862305,0.001096314750611782,0.21697555482387543,0.01633155345916748,0.13410615921020508,0.10500001907348633,3.0546651430540805e-08,22,5512,31164,2131,0,3,0,1,1
627,0,751684590,1.2763819694519043,1.3000001907348633,1.3015074729919434,1.3316582441329956,1.370362401008606,1.2996480464935303,15.651851654052734,3.23478102684021,15.718740463256836,15.718740463256836,0.000785852549597621,0.2066708207130432,0.023618221282958984,0.0688549280166626,0.07071435451507568,3.7028797805760405e-08,23,5245,31470,2131,0,4,1,1,1
637,0,851651915,1.2763819694519043,1.2999998331069946,1.3015074729919434,1.3316582441329956,1.3553624153137207,1.3002872467041016,13.254949569702148,2.8576838970184326,13.282829284667969,13.282829284667969,0.0006640974315814674,0.21559372544288635,0.023617863655090332,0.053854942321777344,0.05507516860961914,1.0099845582089984e-07,24,5106,31653,2131,0,4,1,1,1
647,0,951607997,1.2763819694519043,1.3000000715255737,1.3015074729919434,1.3316582441329956,1.3403624296188354,1.30032479763031,13.32065200805664,2.8481462001800537,13.35317611694336,13.35317611694336,0.0006676778430119157,0.21381431818008423,0.023618102073669434,0.03885495662689209,0.04003763198852539,1.2722820486033015e-07,25,4937,31577,2131,0,4,1,1,1
657,0,1051539324,1.2713568210601807,1.25,1.2512562274932861,1.2814069986343384,1.3253624439239502,1.2498360872268677,20.991174697875977,4.527347564697266,21.044822692871094,21.044822692871094,0.0010522102238610387,0.2156786173582077,0.021356821060180664,0.07410621643066406,0.07552635669708252,5.026319915835131e-10,26,4809,31655,2131,0,4,1,1,1
667,0,1151546548,1.2713568210601807,1.25,1.2512562274932861,1.2814069986343384,1.310362458229065,1.2504751682281494,23.209035873413086,5.183603286743164,23.235614776611328,23.235614776611328,0.0011616641422733665,0.22334419190883636,0.021356821060180664,0.05910623073577881,0.05988729000091553,8.814233297016472e-05,27,4984,31721,2131,0,3,1,1,1
677,0,1251552394,1.2713568210601807,1.25,1.2512562274932861,1.2814069986343384,1.2953624725341797,1.2499113082885742,21.44878578186035,4.7280755043029785,21.482357025146484,21.482357025146484,0.0010741673177108169,0.22043557465076447,0.021356821060180664,0.044106245040893555,0.04545116424560547,4.5030160156223076e-10,28,4947,31740,2131,0,4,1,1,1
687,0,1351536064,1.2713568210601807,1.25,1.2512562274932861,1.2814069986343384,1.2803624868392944,1.2499489784240723,20.82927703857422,4.432059288024902,20.89447593688965,20.89447593688965,0.0010446873493492603,0.21278028190135956,0.021356821060180664,0.0291062593460083,0.030413508415222168,4.88534657172579e-10,29,4913,31671,2131,0,4,1,1,1
697,0,1451536806,1.2763819694519043,1.3000000715255737,1.3015074729919434,1.3316582441329956,1.2953624725341797,1.299911379814148,13.740724563598633,2.8767547607421875,13.789840698242188,13.789840698242188,0.000689478765707463,0.20935975015163422,0.023618102073669434,0.006145000457763672,0.004548907279968262,6.586184042589593e-08,30,4814,31767,2131,0,4,1,1,1
707,0,1551527566,1.2713568210601807,1.25,1.2512562274932861,1.2814069986343384,1.2803624868392944,1.250550389289856,16.990005493164062,3.80285382270813,17.007963180541992,17.007963180541992,0.0008503251010552049,0.22382888197898865,0.021356821060180664,0.0291062593460083,0.029812097549438477,9.46333122975318e-10,31,4873,31768,2131,0,4,1,1,1
717,0,1651511485,1.266331672668457,1.2500001192092896,1.2512562274932861,1.2814069986343384,1.2653625011444092,1.2499865293502808,24.445636749267578,5.357344627380371,24.491077423095703,24.491077423095703,0.0012245567049831152,0.21915340423583984,0.01633155345916748,0.014106273651123047,0.015375971794128418,1.5191183422302856e-08,32,4941,31679,2131,0,3,1,1,1
727,0,1751484673,1.266331672668457,1.25,1.2512562274932861,1.2814069986343384,1.250362515449524,1.2494226694107056,22.484352111816406,4.774904727935791,22.55733871459961,22.55733871459961,0.0011277904268354177,0.21236568689346313,0.01633167266845703,0.000893712043762207,0.0009398460388183594,1.8504183074696812e-08,33,4857,31747,2131,0,3,1,1,1
737,0,1851471958,1.266331672668457,1.25,1.2512562274932861,1.2814069986343384,1.2500617504119873,1.2500617504119873,22.95789337158203,4.983391284942627,23.009763717651367,23.009763717651367,0.001150498865172267,0.21706657111644745,0.01633167266845703,0.0011944770812988281,0.0,1.8967261539160063e-08,34,4837,31724,2131,0,3,1,0,1
747,0,1951476069,1.2562813758850098,1.25,1.2512562274932861,1.2814069986343384,1.250362515449524,1.250362515449524,21.41555404663086,4.794745445251465,21.43920135498047,21.43920135498047,0.0010717952391132712,0.22389079630374908,0.006281375885009766,0.000893712043762207,0.0,3.9342284985366405e-10,35,4854,31723,2131,0,3,1,0,1
757,0,2051533369,1.2713568210601807,1.25,1.2512562274932861,1.2814069986343384,1.2500617504119873,1.2500617504119873,17.13442039489746,3.7306344509124756,17.17123794555664,17.17123794555664,0.0008585653267800808,0.21772749722003937,0.021356821060180664,0.0011944770812988281,0.0,8.211931135093664e-10,36,5012,31705,2131,0,4,1,0,1
767,0,2151514443,1.2814069986343384,1.3000000715255737,1.3015074729919434,1.3316582441329956,1.2650617361068726,1.2996858358383179,15.27351188659668,3.1996498107910156,15.32745361328125,15.32745361328125,0.0007663864525966346,0.2094901204109192,0.01859307289123535,0.0364457368850708,0.03462409973144531,6.500095537376183e-07,37,4890,31739,2131,0,3,1,1,1
777,0,2251500231,1.2914572954177856,1.3000000715255737,1.3015074729919434,1.3316582441329956,1.2800617218017578,1.300249695777893,20.369491577148438,4.4227447509765625,20.406944274902344,20.406944274902344,0.0010202188277617097,0.21712592244148254,0.008542776107788086,0.021445751190185547,0.020187973976135254,1.3011022259590277e-09,38,4786,31739,2131,0,3,1,1,1
787,0,2351542924,1.2964824438095093,1.3000000715255737,1.3015074729919434,1.3316582441329956,1.295061707496643,1.2996106147766113,21.009262084960938,4.41422176361084,21.078304290771484,21.078304290771484,0.0010540223447605968,0.21010836958885193,0.003517627716064453,0.006445765495300293,0.004548907279968262,8.717232491406435e-11,39,4938,31684,2131,0,3,1,1,1
797,0,2451564416,1.3115577697753906,1.3000000715255737,1.3015074729919434,1.3316582441329956,1.2995729446411133,1.2995729446411133,20.1912841796875,4.183991432189941,20.275035858154297,20.275035858154297,0.0010136846685782075,0.20721769332885742,0.011557698249816895,0.0019345283508300781,0.0,4.2853900983352844e-10,40,4998,31679,2131,0,3,1,0,1
807,0,2551569213,1.306532621383667,1.3000000715255737,1.3015074729919434,1.3316582441329956,1.3004752397537231,1.3004752397537231,25.371824264526367,5.482397556304932,25.422340393066406,25.422340393066406,0.0012710681185126305,0.2160821259021759,0.006532549858093262,0.0010322332382202148,0.0,1.0018252893928548e-10,41,5005,31700,2131,0,3,1,0,1
817,0,2651551240,1.3115577697753906,1.3000000715255737,1.3015074729919434,1.3316582441329956,1.3001744747161865,1.3001744747161865,26.652938842773438,5.681764602661133,26.72344970703125,26.72344970703125,0.0013361716410145164,0.2131759077310562,0.011557698249816895,0.001332998275756836,0.0,2.403037768772265e-10,42,4919,31756,2131,0,3,1,0,1
827,0,2751545917,1.3115577697753906,1.3000000715255737,1.3015074729919434,1.3316582441329956,1.29987370967865,1.29987370967865,27.029125213623047,5.575821399688721,27.147258758544922,27.147258758544922,0.0013572550378739834,0.2062893807888031,0.011557698249816895,0.001633763313293457,0.0,1.7633541848915968e-10,43,4904,31822,2131,0,3,1,0,1
837,0,2851566895,1.3115577697753906,1.3000000715255737,1.3015074729919434,1.3316582441329956,1.3001744747161865,1.3001744747161865,20.341602325439453,4.334630489349365,20.395912170410156,20.395912170410156,0.001019799499772489,0.2130918949842453,0.011557698249816895,0.001332998275756836,0.0,4.341234871585442e-10,44,4997,31678,2131,0,3,1,0,1
847,0,2951661376,1.3115577697753906,1.3000000715255737,1.3015074729919434,1.3316582441329956,1.3004752397537231,1.3004752397537231,32.68866729736328,7.0689592361450195,32.75260543823242,32.75260543823242,0.0016375395935028791,0.21625107526779175,0.011557698249816895,0.0010322332382202148,0.0,1.738978544496561e-10,45,5382,31168,2135,0,3,1,0,1
857,0,3051611883,1.2311557531356812,1.2500001192092896,1.2512562274932861,1.2814069986343384,1.285475254058838,1.2496482133865356,19.600467681884766,4.178580284118652,19.659881591796875,19.659881591796875,0.0009829135378822684,0.2131877839565277,0.0188443660736084,0.03421902656555176,0.035827040672302246,6.49668763230693e-08,46,5322,31238,2131,0,3,1,1,1
867,0,3151585675,1.3015074729919434,1.3000000715255737,1.3015074729919434,1.3316582441329956,1.2996106147766113,1.2996106147766113,45.71868896484375,9.591381072998047,45.87163543701172,45.87163543701172,0.002293786033987999,0.20979125797748566,0.001507401466369629,0.0018968582153320312,0.0,1.3422073348590136e-11,47,5111,31675,2131,0,3,1,0,1
877,0,3251653128,1.2311557531356812,1.25,1.2512562274932861,1.2814069986343384,1.284610629081726,1.250588059425354,30.004371643066406,6.693509578704834,30.036163330078125,30.036163330078125,0.0015017417026683688,0.2230844795703888,0.018844246864318848,0.03335440158843994,0.03402256965637207,1.9445776544557702e-08,48,5491,31076,2131,0,3,1,1,1
887,0,3351565612,1.2311557531356812,1.25,1.2512562274932861,1.2814069986343384,1.2696106433868408,1.2500241994857788,33.80995559692383,7.311861991882324,33.888851165771484,33.888851165771484,0.0016944489907473326,0.2162635773420334,0.018844246864318848,0.018354415893554688,0.01958644390106201,1.3128655496075226e-08,49,5163,31556,2131,0,3,1,1,1
897,0,3451546402,1.2311557531356812,1.25,1.2512562274932861,1.2814069986343384,1.2546106576919556,1.249460220336914,29.599061965942383,6.262740135192871,29.698528289794922,29.698528289794922,0.0014847550773993134,0.21158576011657715,0.018844246864318848,0.0033544301986694336,0.005150437355041504,2.748535088414883e-08,50,5127,31354,2131,0,3,1,1,1
907,0,3551541289,1.2261306047439575,1.25,1.2512562274932861,1.2814069986343384,1.2500994205474854,1.2500994205474854,20.35947036743164,4.382690906524658,20.410083770751953,20.410083770751953,0.0010205567814409733,0.21526546776294708,0.02386939525604248,0.0011568069458007812,0.0,1.729149268214769e-08,51,5025,31724,2131,0,4,1,0,1
917,0,3651507120,1.2261306047439575,1.25,1.2512562274932861,1.2814069986343384,1.250400185585022,1.250400185585022,23.96391487121582,5.328166961669922,23.993762969970703,23.993762969970703,0.0011996012181043625,0.22234125435352325,0.02386939525604248,0.0008560419082641602,0.0,9.754580254650591e-09,52,4895,31723,2131,0,4,1,0,1
927,0,3751523463,1.2261306047439575,1.25,1.2512562274932861,1.2814069986343384,1.2500994205474854,1.2500994205474854,25.187061309814453,5.572412967681885,25.22314453125,25.22314453125,0.0012611090205609798,0.2212410867214203,0.02386939525604248,0.0011568069458007812,0.0,9.316741156339958e-09,53,4973,31711,2131,0,4,1,0,1
937,0,3851483249,1.2261306047439575,1.2500001192092896,1.2512562274932861,1.2814069986343384,1.2497986555099487,1.2497986555099487,25.24945831298828,5.372762680053711,25.328563690185547,25.328563690185547,0.0012663064990192652,0.21278724074363708,0.02386951446533203,0.0014575719833374023,0.0,6.398691354547736e-09,54,4786,31750,2131,0,4,1,0,1
947,0,3951618716,1.2261306047439575,1.25,1.2512562274932861,1.2814069986343384,1.249497890472412,1.249497890472412,22.114376068115234,4.727260112762451,22.177082061767578,22.177082061767578,0.0011088801547884941,0.21376411616802216,0.02386939525604248,0.0017583370208740234,0.0,1.653018522063121e-08,55,5359,31377,2131,0,4,1,0,1
957,0,4051621738,1.2261306047439575,1.25,1.2512562274932861,1.2814069986343384,1.250400185585022,1.250400185585022,20.212722778320312,4.477445602416992,20.24060821533203,20.24060821533203,0.0010120219085365534,0.2215162068605423,0.02386939525604248,0.0008560419082641602,0.0,3.67375534437997e-08,56,5391,31157,2131,0,4,1,0,1
967,0,4151614641,1.2261306047439575,1.25,1.2512562274932861,1.2814069986343384,1.2500994205474854,1.2500994205474854,19.71009635925293,4.360881328582764,19.738971710205078,19.738971710205078,0.000986913568340242,0.22125114500522614,0.02386939525604248,0.0011568069458007812,0.0,3.7328920399204435e-08,57,5340,31118,2131,0,4,1,0,1
977,0,4251547305,1.2261306047439575,1.2499998807907104,1.2512562274932861,1.2814069986343384,1.2497986555099487,1.2497986555099487,23.003841400146484,4.877834320068359,23.08036231994629,23.08036231994629,0.0011538760736584663,0.2120443433523178,0.02386927604675293,0.0014575719833374023,0.0,1.8217024333466725e-08,58,5063,31615,2131,0,4,1,0,1
987,0,56571713,1.3015074729919434,1.3000000715255737,1.3015074729919434,1.3316582441329956,1.264798641204834,1.3000242710113525,37.5574836730957,8.03748893737793,37.649574279785156,37.649574279785156,0.0018824535654857755,0.2140049934387207,0.001507401466369629,0.036708831787109375,0.035225629806518555,1.4832655936825034e-11,59,4989,31670,2131,0,3,1,1,1
997,0,156532912,1.246231198310852,1.25,1.2512562274932861,1.2814069986343384,1.2500617504119873,1.2500617504119873,30.16303253173828,6.690752983093262,30.204370498657227,30.204370498657227,0.0015101636527106166,0.22181963920593262,0.0037688016891479492,0.0011944770812988281,0.0,1.1017103895838432e-10,60,4926,31686,2131,0,3,1,0,1
1007,0,256661921,1.246231198310852,1.25,1.2512562274932861,1.2814069986343384,1.250362515449524,1.250362515449524,36.780033111572266,8.22022533416748,36.822364807128906,36.822364807128906,0.0018408681498840451,0.2234969586133957,0.0037688016891479492,0.000893712043762207,0.0,5.293148211404919e-11,61,5497,31302,2131,0,3,1,0,1
1017,0,356663859,1.2412060499191284,1.25,1.2512562274932861,1.2814069986343384,1.2500617504119873,1.2500617504119873,30.322093963623047,6.608458042144775,30.385833740234375,30.385833740234375,0.0015192939899861813,0.217942014336586,0.008793950080871582,0.0011944770812988281,0.0,7.745598051833724e-10,62,5519,31211,2131,0,3,1,0,1
1027,0,456556990,1.2412060499191284,1.25,1.2512562274932861,1.2814069986343384,1.2497609853744507,1.2497609853744507,39.15695571899414,8.312657356262207,39.287044525146484,39.287044525146484,0.0019640892278403044,0.2122906893491745,0.008793950080871582,0.0014952421188354492,0.0,3.39834604901057e-10,63,5059,31266,2131,0,3,1,0,1
1037,0,556557596,1.246231198310852,1.25,1.2512562274932861,1.2814069986343384,1.2500617504119873,1.2500617504119873,43.919315338134766,9.555720329284668,44.01410675048828,44.01410675048828,0.0022007133811712265,0.21757443249225616,0.0037688016891479492,0.0011944770812988281,0.0,3.267299972242732e-11,64,5069,31363,2131,0,3,1,0,1
1047,0,656550506,1.2512562274932861,1.25,1.2512562274932861,1.2814069986343384,1.250362515449524,1.250362515449524,36.097171783447266,8.079850196838379,36.137237548828125,36.137237548828125,0.0018065873300656676,0.22383609414100647,0.0012562274932861328,0.000893712043762207,0.0,5.747409492773414e-12,65,5051,31756,2131,0,3,1,0,1
1057,0,756553983,1.2562813758850098,1.25,1.2512562274932861,1.2814069986343384,1.2500617504119873,1.2500617504119873,38.93166732788086,8.508481979370117,39.008827209472656,39.008827209472656,0.0019504314986988902,0.21854913234710693,0.006281375885009766,0.0011944770812988281,0.0,2.2491362938747983e-10,66,5058,31615,2131,0,3,1,0,1
1067,0,856545075,1.2562813758850098,1.2500001192092896,1.2512562274932861,1.2814069986343384,1.2497609853744507,1.2497609853744507,35.23182678222656,7.478871822357178,35.349021911621094,35.349021911621094,0.0017672143876552582,0.21227601170539856,0.006281256675720215,0.0014952421188354492,0.0,2.807178656194509e-10,67,5021,31567,2131,0,3,1,0,1
1077,0,956509733,1.2562813758850098,1.25,1.2512562274932861,1.2814069986343384,1.2500617504119873,1.2500617504119873,33.80815505981445,7.349496364593506,33.88239669799805,33.88239669799805,0.0016941290814429522,0.21738827228546143,0.006281375885009766,0.0011944770812988281,0.0,3.0627478331268776e-10,68,4853,31736,2131,0,3,1,0,1
1087,0,1056545008,1.2512562274932861,1.25,1.2512562274932861,1.2814069986343384,1.250362515449524,1.250362515449524,34.65651321411133,7.754859447479248,34.695152282714844,34.695152282714844,0.0017344957450404763,0.22376340627670288,0.0012562274932861328,0.000893712043762207,0.0,6.6037991047762645e-12,69,5021,31750,2131,0,3,1,0,1
1097,0,1156517061,1.2512562274932861,1.25,1.2512562274932861,1.2814069986343384,1.2500617504119873,1.2500617504119873,34.827796936035156,7.605522632598877,34.89759063720703,34.89759063720703,0.0017448742873966694,0.2183750718832016,0.0012562274932861328,0.0011944770812988281,0.0,6.493936464957439e-12,70,4884,31825,2131,0,3,1,0,1
1107,0,1256524024,1.2512562274932861,1.2500001192092896,1.2512562274932861,1.2814069986343384,1.2497609853744507,1.2497609853744507,35.087242126464844,7.444612503051758,35.204254150390625,35.204254150390625,0.0017599734710529447,0.21217434108257294,0.001256108283996582,0.0014952421188354492,0.0,6.753900390343848e-12,71,4923,31705,2131,0,3,1,0,1
1117,0,1356526105,1.2562813758850098,1.25,1.2512562274932861,1.2814069986343384,1.2500617504119873,1.2500617504119873,33.74897766113281,7.332146167755127,33.82341766357422,33.82341766357422,0.0016911819111555815,0.2172553539276123,0.006281375885009766,0.0011944770812988281,0.0,2.943335852823026e-10,72,4922,31679,2131,0,3,1,0,1
1127,0,1456519112,1.2512562274932861,1.25,1.2512562274932861,1.2814069986343384,1.250362515449524,1.250362515449524,40.97715377807617,9.163127899169922,41.0230712890625,41.0230712890625,0.002050848212093115,0.22361552715301514,0.0012562274932861328,0.000893712043762207,0.0,5.349074481963978e-12,73,4903,31697,2131,0,3,1,0,1
1137,0,1556524929,1.2512562274932861,1.25,1.2512562274932861,1.2814069986343384,1.2500617504119873,1.2500617504119873,38.501380920410156,8.373600006103516,38.58420944213867,38.58420944213867,0.0019292166689410806,0.21748830378055573,0.0012562274932861328,0.0011944770812988281,0.0,5.430069588419073e-12,74,4918,31757,2131,0,3,1,0,1
1147,0,1656522032,1.2512562274932861,1.25,1.2512562274932861,1.2814069986343384,1.2497609853744507,1.2497609853744507,41.08074188232422,8.721214294433594,41.215660095214844,41.215660095214844,0.0020605195313692093,0.21229447424411774,0.0012562274932861328,0.0014952421188354492,0.0,6.459946726850019e-12,75,4914,31718,2131,0,3,1,0,1
1157,0,1756557161,1.2512562274932861,1.25,1.2512562274932861,1.2814069986343384,1.2500617504119873,1.2500617504119873,54.05291748046875,11.875730514526367,54.14639663696289,54.14639663696289,0.0027072718366980553,0.21970564126968384,0.0012562274932861328,0.0011944770812988281,0.0,6.6443439292185325e-12,76,5054,31575,2131,0,3,1,0,1
1167,0,1856532084,1.2512562274932861,1.25,1.2512562274932861,1.2814069986343384,1.250362515449524,1.250362515449524,55.671722412109375,12.434896469116211,55.735198974609375,55.735198974609375,0.002786368364468217,0.2233610898256302,0.0012562274932861328,0.000893712043762207,0.0,6.38343327849511e-12,77,4948,31737,2131,0,3,1,0,1
1177,0,1956529568,1.2512562274932861,1.25,1.2512562274932861,1.2814069986343384,1.2500617504119873,1.2500617504119873,54.34389114379883,11.716898918151855,54.47860336303711,54.47860336303711,0.0027239841874688864,0.21560655534267426,0.0012562274932861328,0.0011944770812988281,0.0,6.9396376665975534e-12,78,4948,31681,2131,0,3,1,0,1
1187,0,2056509543,1.2512562274932861,1.25,1.2512562274932861,1.2814069986343384,1.2497609853744507,1.2497609853744507,53.3445930480957,11.326868057250977,53.51824951171875,53.51824951171875,0.002675582654774189,0.21233394742012024,0.0012562274932861328,0.0014952421188354492,0.0,6.729702298896578e-12,79,4861,31772,2131,0,3,1,0,1
1197,0,2156520534,1.2512562274932861,1.25,1.2512562274932861,1.2814069986343384,1.2500617504119873,1.2500617504119873,46.73817443847656,10.295282363891602,46.81389617919922,46.81389617919922,0.0023406383115798235,0.2202756702899933,0.0012562274932861328,0.0011944770812988281,0.0,6.690347928439699e-12,80,4909,31759,2131,0,3,1,0,1
1207,0,2256507229,1.2562813758850098,1.25,1.2512562274932861,1.2814069986343384,1.250362515449524,1.250362515449524,48.801048278808594,10.885200500488281,48.85871505737305,48.85871505737305,0.0024426321033388376,0.22305259108543396,0.006281375885009766,0.000893712043762207,0.0,1.2750486777513004e-10,81,4849,31732,2131,0,3,1,0,1
1217,0,2356498514,1.2562813758850098,1.25,1.2512562274932861,1.2814069986343384,1.2500617504119873,1.2500617504119873,45.0751953125,9.698426246643066,45.190635681152344,45.190635681152344,0.0022595871705561876,0.2151610404253006,0.006281375885009766,0.0011944770812988281,0.0,1.1844281111450528e-10,82,4802,31751,2131,0,3,1,0,1
1227,0,2456494769,1.2562813758850098,1.25,1.2512562274932861,1.2814069986343384,1.2497609853744507,1.2497609853744507,49.29049301147461,10.485970497131348,49.4464111328125,49.4464111328125,0.0024720528163015842,0.21273820102214813,0.006281375885009766,0.0014952421188354492,0.0,1.3091255857133888e-10,83,4791,31773,2131,0,3,1,0,1
1237,0,2556536191,1.2562813758850098,1.25,1.2512562274932861,1.2814069986343384,1.2500617504119873,1.2500617504119873,47.19635772705078,10.41318130493164,47.269752502441406,47.269752502441406,0.002363421954214573,0.2206352800130844,0.006281375885009766,0.0011944770812988281,0.0,1.241659136619333e-10,84,4970,31787,2131,0,3,1,0,1
1247,0,2656498213,1.2562813758850098,1.2500001192092896,1.2512562274932861,1.2814069986343384,1.250362515449524,1.250362515449524,36.17401885986328,8.039198875427246,36.22100830078125,36.22100830078125,0.001810913672670722,0.22223681211471558,0.006281256675720215,0.000893712043762207,0.0,1.3616958949302926e-10,85,4804,31784,2131,0,3,1,0,1
1257,0,2756530377,1.2613065242767334,1.25,1.2512562274932861,1.2814069986343384,1.2500617504119873,1.2500617504119873,32.43986892700195,6.979267120361328,32.523502349853516,32.523502349853516,0.0016262149438261986,0.21514473855495453,0.011306524276733398,0.0011944770812988281,0.0,5.553947857173114e-10,86,4948,31679,2131,0,3,1,0,1
1267,0,2856573800,1.4070351123809814,1.4000000953674316,1.4020100831985474,1.3718593120574951,1.2650617361068726,1.3700617551803589,31.687164306640625,9.636685371398926,31.823070526123047,8.02077579498291,0.0015910867368802428,0.3041195273399353,0.007035017013549805,0.1369483470916748,0.10500001907348633,8.445255605948887e-11,87,4992,31683,2131,0,3,0,1,1
1277,0,2956573846,1.4070351123809814,1.4000000953674316,1.4020100831985474,1.3718593120574951,1.2800617218017578,1.3850617408752441,25.586570739746094,8.104055404663086,19.2625675201416,19.2625675201416,0.0012882265727967024,0.3167308270931244,0.007035017013549805,0.12194836139678955,0.10500001907348633,1.89176563303306e-10,88,4947,31673,2131,0,3,1,1,1
1287,0,3056584587,1.4070351123809814,1.4000000953674316,1.4020100831985474,1.3718593120574951,1.295061707496643,1.4000617265701294,34.81300735473633,10.587013244628906,34.96177291870117,34.96177291870117,0.0017480440437793732,0.3041108548641205,0.007035017013549805,0.1069483757019043,0.10500001907348633,2.2051940828937688e-10,89,4966,31632,2131,0,3,1,1,1
1297,0,3156582778,1.3969849348068237,1.4000000953674316,1.4020100831985474,1.3718593120574951,1.3100616931915283,1.400024175643921,28.27224349975586,8.771418571472168,28.42925453186035,28.42925453186035,0.0014214692637324333,0.31024840474128723,0.00301516056060791,0.09194839000701904,0.08996248245239258,3.8511745875657866e-11,90,4915,31726,2131,0,3,1,1,1
1307,0,3256581999,1.3969849348068237,1.4000000953674316,1.4020100831985474,1.3718593120574951,1.3250616788864136,1.3999865055084229,32.95738220214844,10.301002502441406,33.157161712646484,33.157161712646484,0.0016578483628109097,0.3125552535057068,0.00301516056060791,0.07694840431213379,0.07492482662200928,3.4246237790025447e-11,91,4880,31738,2131,0,3,1,1,1
1317,0,3356592101,1.3919597864151,1.4000000953674316,1.4020100831985474,1.3718593120574951,1.3400616645812988,1.400550365447998,30.244598388671875,9.157453536987305,30.36322021484375,30.36322021484375,0.001518195727840066,0.30277979373931885,0.008040308952331543,0.061948418617248535,0.06048870086669922,5.02365038457242e-10,92,4885,31788,2131,0,3,1,1,1
1327,0,3456603982,1.3919597864151,1.4000000953674316,1.4020100831985474,1.3718593120574951,1.355061650276184,1.3999112844467163,23.739261627197266,7.52496337890625,23.906597137451172,23.906597137451172,0.0011952598579227924,0.3169838786125183,0.008040308952331543,0.04694843292236328,0.04484963417053223,6.136412489254894e-10,93,4899,31744,2131,0,3,1,1,1
1337,0,3556616151,1.3919597864151,1.4000000953674316,1.4020100831985474,1.3718593120574951,1.3700616359710693,1.4004751443862915,21.96693229675293,6.662532806396484,22.055788040161133,22.055788040161133,0.0011027836007997394,0.30329829454421997,0.008040308952331543,0.03194844722747803,0.030413508415222168,6.819528275414655e-10,94,4909,31712,2131,0,3,1,1,1
1347,0,3656779228,1.5427136421203613,1.5499999523162842,1.552763819694519,1.5226130485534668,1.3850616216659546,1.4786330461502075,29.293710708618164,9.618526458740234,29.549571990966797,1.344555377960205,0.0014774176524952054,0.3283478319644928,0.0072863101959228516,0.16770219802856445,0.09357142448425293,2.2237264807323243e-10,95,5575,30929,2131,0,3,0,1,1
1357,0,3756722296,1.4020100831985474,1.4000000953674316,1.4020100831985474,1.3718593120574951,1.3997983932495117,1.3997983932495117,25.772258758544922,8.086740493774414,25.93551254272461,25.93551254272461,0.0012967282673344016,0.3137769401073456,0.0020099878311157227,0.0022116899490356445,0.0,2.1316998513598584e-11,96,5325,31237,2136,0,3,1,0,1
1367,0,3856652388,1.3969849348068237,1.4000000953674316,1.4020100831985474,1.3718593120574951,1.4000991582870483,1.4000991582870483,25.609619140625,7.783103942871094,25.717483520507812,25.717483520507812,0.0012858151458203793,0.30391329526901245,0.00301516056060791,0.0019109249114990234,0.0,2.890120781584571e-11,97,5040,31570,2131,0,3,1,0,1
1377,0,3956623959,1.3919597864151,1.4000000953674316,1.4020100831985474,1.3718593120574951,1.3997983932495117,1.3997983932495117,27.752887725830078,8.79311752319336,27.948469161987305,27.948469161987305,0.001397283049300313,0.3168361186981201,0.008040308952331543,0.0022116899490356445,0.0,3.4822797423395e-10,98,4916,31728,2131,0,3,1,0,1
1387,0,4056619229,1.3969849348068237,1.399999976158142,1.4020100831985474,1.3718593120574951,1.4000991582870483,1.4000991582870483,30.71344566345215,9.279214859008789,30.831682205200195,30.831682205200195,0.0015414840308949351,0.30212223529815674,0.0030150413513183594,0.0019109249114990234,0.0,1.9273692017374167e-11,99,4895,31682,2131,0,3,1,0,1
1397,0,4156799104,1.3919597864151,1.4000000953674316,1.4020100831985474,1.3718593120574951,1.3997983932495117,1.3997983932495117,26.244077682495117,8.17525863647461,26.3958740234375,26.3958740234375,0.0013198110973462462,0.3115087151527405,0.008040308952331543,0.0022116899490356445,0.0,4.4354925288203617e-10,100,5683,30716,2131,0,3,1,0,1
1407,0,4256692747,1.3869346380233765,1.399999976158142,1.4020100831985474,1.3718593120574951,1.4000991582870483,1.4000991582870483,20.06769371032715,6.291772842407227,20.191410064697266,20.191410064697266,0.0010096261976286769,0.3135274648666382,0.013065338134765625,0.0019109249114990234,0.0,6.392689044787403e-09,101,5219,31338,2138,0,3,1,0,1
1417,0,61709070,1.3768844604492188,1.4000000953674316,1.4020100831985474,1.3718593120574951,1.400399923324585,1.400399923324585,19.744037628173828,5.98124885559082,19.823116302490234,19.823116302490234,0.0009910928783938289,0.3029395043849945,0.02311563491821289,0.0016101598739624023,0.0,2.112140462529055e-09,102,5038,31452,2131,0,4,1,0,1
1427,0,161652442,1.3668341636657715,1.350000023841858,1.3517587184906006,1.3819096088409424,1.3853999376296997,1.3495728969573975,24.163366317749023,4.851621627807617,24.29918670654297,24.29918670654297,0.0012148343957960606,0.20078417658805847,0.016834139823913574,0.03364121913909912,0.035827040672302246,1.509337543836864e-08,103,4914,31777,2131,0,3,1,1,1
1437,0,261688524,1.3718593120574951,1.350000023841858,1.3517587184906006,1.3819096088409424,1.3703999519348145,1.3502119779586792,22.370182037353516,4.675995349884033,22.44192123413086,22.44192123413086,0.0011220341548323631,0.20902803540229797,0.021859288215637207,0.018641233444213867,0.020187973976135254,4.222555916033599e-10,104,4973,31727,2131,0,4,1,1,1
1447,0,361660076,1.3668341636657715,1.350000023841858,1.3517587184906006,1.3819096088409424,1.3553999662399292,1.3502495288848877,27.184473037719727,5.589236259460449,27.294231414794922,27.294231414794922,0.0013648256426677108,0.20560400187969208,0.016834139823913574,0.0036412477493286133,0.005150437355041504,1.2091569523420276e-08,105,4935,31696,2131,0,3,1,1,1
1457,0,461678950,1.3718593120574951,1.350000023841858,1.3517587184906006,1.3819096088409424,1.3496856689453125,1.3496856689453125,24.16143798828125,4.880817890167236,24.287565231323242,24.287565231323242,0.001214305986650288,0.20200859010219574,0.021859288215637207,0.002073049545288086,0.0,3.8803435464807023e-10,106,4963,31633,2131,0,4,1,0,1
1467,0,561665297,1.3668341636657715,1.350000023841858,1.3517587184906006,1.3819096088409424,1.3505879640579224,1.3505879640579224,33.051307678222656,6.972250938415527,33.13787841796875,33.13787841796875,0.0016568182036280632,0.21095234155654907,0.016834139823913574,0.0011707544326782227,0.0,7.795023293510894e-09,107,5005,31567,2131,0,3,1,0,1
1477,0,661646363,1.3618090152740479,1.3499999046325684,1.3517587184906006,1.3819096088409424,1.3496856689453125,1.3496856689453125,31.543790817260742,6.4367451667785645,31.686044692993164,31.686044692993164,0.0015843764413148165,0.20405744016170502,0.011809110641479492,0.002073049545288086,0.0,1.320538123295023e-09,108,4925,31676,2131,0,3,1,0,1
1487,0,761583453,1.2211055755615234,1.2000000476837158,1.201004981994629,1.2311557531356812,1.3346856832504272,1.229685664176941,23.15761375427246,5.18791389465332,23.189306259155273,6.101190567016602,0.0011594739044085145,0.22402627766132355,0.021105527877807617,0.13368070125579834,0.10500001907348633,7.255306172737619e-06,109,4952,31703,2131,0,3,0,1,1
1497,0,861635363,1.3618090152740479,1.350000023841858,1.3517587184906006,1.3819096088409424,1.3496856689453125,1.3500239849090576,32.25160217285156,6.800730228424072,32.33599090576172,32.33599090576172,0.0016167678404599428,0.21086488664150238,0.011808991432189941,0.002073049545288086,0.0003383159637451172,1.1197800464657348e-09,110,4929,31744,2131,0,3,1,1,1
1507,0,961733574,1.2211055755615234,1.2000000476837158,1.201004981994629,1.2311557531356812,1.3346856832504272,1.229685664176941,29.657127380371094,6.761199951171875,29.681367874145508,7.944969177246094,0.0014840023359283805,0.2279789298772812,0.021105527877807617,0.13368070125579834,0.10500001907348633,2.0181921911444078e-07,111,5591,31053,2131,0,3,0,1,1
1517,0,1061853786,1.3718593120574951,1.350000023841858,1.3517587184906006,1.3819096088409424,1.3496856689453125,1.3500239849090576,20.204753875732422,4.141921043395996,20.29161834716797,20.29161834716797,0.0010145847918465734,0.20499734580516815,0.021859288215637207,0.002073049545288086,0.0003383159637451172,6.554612963505235e-10,112,5769,30603,2131,0,4,1,1,1
1527,0,1161753315,1.3718593120574951,1.350000023841858,1.3517587184906006,1.3819096088409424,1.3505879640579224,1.3505879640579224,19.23316192626953,4.04917573928833,19.285335540771484,19.285335540771484,0.0009642678778618574,0.21053093671798706,0.021859288215637207,0.0011707544326782227,0.0,7.767593235286085e-10,113,5301,31308,2131,0,4,1,0,1
